{"type":"Topology","arcs":[],"objects":{"NUTS_LB_2016_4326":{"type":"GeometryCollection","geometries":[{"type":"Point","coordinates":[20.0708,41.1389],"properties":{"NUTS_ID":"AL","LEVL_CODE":0,"CNTR_CODE":"AL","NUTS_NAME":"SHQIPËRIA","FID":"AL"},"id":"AL"},{"type":"Point","coordinates":[14.1373,47.5847],"properties":{"NUTS_ID":"AT","LEVL_CODE":0,"CNTR_CODE":"AT","NUTS_NAME":"ÖSTERREICH","FID":"AT"},"id":"AT"},{"type":"Point","coordinates":[4.6593,50.6429],"properties":{"NUTS_ID":"BE","LEVL_CODE":0,"CNTR_CODE":"BE","NUTS_NAME":"BELGIQUE-BELGIË ","FID":"BE"},"id":"BE"},{"type":"Point","coordinates":[25.235,42.7546],"properties":{"NUTS_ID":"BG","LEVL_CODE":0,"CNTR_CODE":"BG","NUTS_NAME":"БЪЛГАРИЯ","FID":"BG"},"id":"BG"},{"type":"Point","coordinates":[8.2129,46.9548],"properties":{"NUTS_ID":"CH","LEVL_CODE":0,"CNTR_CODE":"CH","NUTS_NAME":"SCHWEIZ/SUISSE/SVIZZERA","FID":"CH"},"id":"CH"},{"type":"Point","coordinates":[33.1739,35.0284],"properties":{"NUTS_ID":"CY","LEVL_CODE":0,"CNTR_CODE":"CY","NUTS_NAME":"ΚΥΠΡΟΣ","FID":"CY"},"id":"CY"},{"type":"Point","coordinates":[15.3276,49.7382],"properties":{"NUTS_ID":"CZ","LEVL_CODE":0,"CNTR_CODE":"CZ","NUTS_NAME":"ČESKÁ REPUBLIKA","FID":"CZ"},"id":"CZ"},{"type":"Point","coordinates":[10.3786,51.0735],"properties":{"NUTS_ID":"DE","LEVL_CODE":0,"CNTR_CODE":"DE","NUTS_NAME":"DEUTSCHLAND","FID":"DE"},"id":"DE"},{"type":"Point","coordinates":[9.3193,56.0271],"properties":{"NUTS_ID":"DK","LEVL_CODE":0,"CNTR_CODE":"DK","NUTS_NAME":"DANMARK","FID":"DK"},"id":"DK"},{"type":"Point","coordinates":[25.8548,58.6709],"properties":{"NUTS_ID":"EE","LEVL_CODE":0,"CNTR_CODE":"EE","NUTS_NAME":"EESTI","FID":"EE"},"id":"EE"},{"type":"Point","coordinates":[22.5402,39.4982],"properties":{"NUTS_ID":"EL","LEVL_CODE":0,"CNTR_CODE":"EL","NUTS_NAME":"ΕΛΛΑΔΑ","FID":"EL"},"id":"EL"},{"type":"Point","coordinates":[-3.5521,40.3816],"properties":{"NUTS_ID":"ES","LEVL_CODE":0,"CNTR_CODE":"ES","NUTS_NAME":"ESPAÑA ","FID":"ES"},"id":"ES"},{"type":"Point","coordinates":[26.2795,64.4974],"properties":{"NUTS_ID":"FI","LEVL_CODE":0,"CNTR_CODE":"FI","NUTS_NAME":"SUOMI / FINLAND","FID":"FI"},"id":"FI"},{"type":"Point","coordinates":[2.5059,46.6183],"properties":{"NUTS_ID":"FR","LEVL_CODE":0,"CNTR_CODE":"FR","NUTS_NAME":"FRANCE","FID":"FR"},"id":"FR"},{"type":"Point","coordinates":[16.4894,43.756],"properties":{"NUTS_ID":"HR","LEVL_CODE":0,"CNTR_CODE":"HR","NUTS_NAME":"HRVATSKA","FID":"HR"},"id":"HR"},{"type":"Point","coordinates":[19.4066,47.1616],"properties":{"NUTS_ID":"HU","LEVL_CODE":0,"CNTR_CODE":"HU","NUTS_NAME":"MAGYARORSZÁG","FID":"HU"},"id":"HU"},{"type":"Point","coordinates":[-8.0902,53.1794],"properties":{"NUTS_ID":"IE","LEVL_CODE":0,"CNTR_CODE":"IE","NUTS_NAME":"IRELAND","FID":"IE"},"id":"IE"},{"type":"Point","coordinates":[-18.8569,64.756],"properties":{"NUTS_ID":"IS","LEVL_CODE":0,"CNTR_CODE":"IS","NUTS_NAME":"ÍSLAND","FID":"IS"},"id":"IS"},{"type":"Point","coordinates":[12.5322,42.837],"properties":{"NUTS_ID":"IT","LEVL_CODE":0,"CNTR_CODE":"IT","NUTS_NAME":"ITALIA","FID":"IT"},"id":"IT"},{"type":"Point","coordinates":[9.5534,47.1383],"properties":{"NUTS_ID":"LI","LEVL_CODE":0,"CNTR_CODE":"LI","NUTS_NAME":"LIECHTENSTEIN","FID":"LI"},"id":"LI"},{"type":"Point","coordinates":[23.9197,55.3351],"properties":{"NUTS_ID":"LT","LEVL_CODE":0,"CNTR_CODE":"LT","NUTS_NAME":"LIETUVA","FID":"LT"},"id":"LT"},{"type":"Point","coordinates":[6.0943,49.771],"properties":{"NUTS_ID":"LU","LEVL_CODE":0,"CNTR_CODE":"LU","NUTS_NAME":"LUXEMBOURG","FID":"LU"},"id":"LU"},{"type":"Point","coordinates":[26.382,56.6829],"properties":{"NUTS_ID":"LV","LEVL_CODE":0,"CNTR_CODE":"LV","NUTS_NAME":"LATVIJA","FID":"LV"},"id":"LV"},{"type":"Point","coordinates":[19.269,42.7721],"properties":{"NUTS_ID":"ME","LEVL_CODE":0,"CNTR_CODE":"ME","NUTS_NAME":"ЦРНА ГОРА","FID":"ME"},"id":"ME"},{"type":"Point","coordinates":[21.6966,41.5981],"properties":{"NUTS_ID":"MK","LEVL_CODE":0,"CNTR_CODE":"MK","NUTS_NAME":"North Macedonia","FID":"MK"},"id":"MK"},{"type":"Point","coordinates":[14.4312,35.886],"properties":{"NUTS_ID":"MT","LEVL_CODE":0,"CNTR_CODE":"MT","NUTS_NAME":"MALTA","FID":"MT"},"id":"MT"},{"type":"Point","coordinates":[5.646,52.2932],"properties":{"NUTS_ID":"NL","LEVL_CODE":0,"CNTR_CODE":"NL","NUTS_NAME":"NEDERLAND","FID":"NL"},"id":"NL"},{"type":"Point","coordinates":[11.4948,61.7103],"properties":{"NUTS_ID":"NO","LEVL_CODE":0,"CNTR_CODE":"NO","NUTS_NAME":"NORGE","FID":"NO"},"id":"NO"},{"type":"Point","coordinates":[19.4066,52.1309],"properties":{"NUTS_ID":"PL","LEVL_CODE":0,"CNTR_CODE":"PL","NUTS_NAME":"POLSKA","FID":"PL"},"id":"PL"},{"type":"Point","coordinates":[-7.9703,39.6868],"properties":{"NUTS_ID":"PT","LEVL_CODE":0,"CNTR_CODE":"PT","NUTS_NAME":"PORTUGAL","FID":"PT"},"id":"PT"},{"type":"Point","coordinates":[24.9778,45.8361],"properties":{"NUTS_ID":"RO","LEVL_CODE":0,"CNTR_CODE":"RO","NUTS_NAME":"ROMÂNIA","FID":"RO"},"id":"RO"},{"type":"Point","coordinates":[20.7975,44.2355],"properties":{"NUTS_ID":"RS","LEVL_CODE":0,"CNTR_CODE":"RS","NUTS_NAME":"REPUBLIKA SRBIJA /РЕПУБЛИКА СРБИЈА","FID":"RS"},"id":"RS"},{"type":"Point","coordinates":[14.4445,60.6418],"properties":{"NUTS_ID":"SE","LEVL_CODE":0,"CNTR_CODE":"SE","NUTS_NAME":"SVERIGE","FID":"SE"},"id":"SE"},{"type":"Point","coordinates":[14.8169,46.1277],"properties":{"NUTS_ID":"SI","LEVL_CODE":0,"CNTR_CODE":"SI","NUTS_NAME":"SLOVENIJA","FID":"SI"},"id":"SI"},{"type":"Point","coordinates":[19.4741,48.7042],"properties":{"NUTS_ID":"SK","LEVL_CODE":0,"CNTR_CODE":"SK","NUTS_NAME":"SLOVENSKO","FID":"SK"},"id":"SK"},{"type":"Point","coordinates":[35.4709,38.9923],"properties":{"NUTS_ID":"TR","LEVL_CODE":0,"CNTR_CODE":"TR","NUTS_NAME":"TÜRKIYE","FID":"TR"},"id":"TR"},{"type":"Point","coordinates":[-2.1086,53.2786],"properties":{"NUTS_ID":"UK","LEVL_CODE":0,"CNTR_CODE":"UK","NUTS_NAME":"UNITED KINGDOM","FID":"UK"},"id":"UK"}]}}}