{"type":"Topology","arcs":[],"objects":{"NUTS_LB_2016_4326":{"type":"GeometryCollection","geometries":[{"type":"Point","coordinates":[20.0708,41.1389],"properties":{"NUTS_ID":"AL0","LEVL_CODE":1,"CNTR_CODE":"AL","NUTS_NAME":"SHQIPËRIA","FID":"AL0"},"id":"AL0"},{"type":"Point","coordinates":[15.8797,48.1513],"properties":{"NUTS_ID":"AT1","LEVL_CODE":1,"CNTR_CODE":"AT","NUTS_NAME":"OSTÖSTERREICH","FID":"AT1"},"id":"AT1"},{"type":"Point","coordinates":[14.6061,47.0797],"properties":{"NUTS_ID":"AT2","LEVL_CODE":1,"CNTR_CODE":"AT","NUTS_NAME":"SÜDÖSTERREICH","FID":"AT2"},"id":"AT2"},{"type":"Point","coordinates":[12.2455,47.2803],"properties":{"NUTS_ID":"AT3","LEVL_CODE":1,"CNTR_CODE":"AT","NUTS_NAME":"WESTÖSTERREICH","FID":"AT3"},"id":"AT3"},{"type":"Point","coordinates":[4.3569,50.8401],"properties":{"NUTS_ID":"BE1","LEVL_CODE":1,"CNTR_CODE":"BE","NUTS_NAME":"RÉGION DE BRUXELLES-CAPITALE/BRUSSELS HOOFDSTEDELIJK GEWEST","FID":"BE1"},"id":"BE1"},{"type":"Point","coordinates":[4.9852,51.1013],"properties":{"NUTS_ID":"BE2","LEVL_CODE":1,"CNTR_CODE":"BE","NUTS_NAME":"VLAAMS GEWEST","FID":"BE2"},"id":"BE2"},{"type":"Point","coordinates":[4.8252,50.4595],"properties":{"NUTS_ID":"BE3","LEVL_CODE":1,"CNTR_CODE":"BE","NUTS_NAME":"RÉGION WALLONNE","FID":"BE3"},"id":"BE3"},{"type":"Point","coordinates":[25.8853,43.1525],"properties":{"NUTS_ID":"BG3","LEVL_CODE":1,"CNTR_CODE":"BG","NUTS_NAME":"СЕВЕРНА И ЮГОИЗТОЧНА БЪЛГАРИЯ","FID":"BG3"},"id":"BG3"},{"type":"Point","coordinates":[24.1941,42.1249],"properties":{"NUTS_ID":"BG4","LEVL_CODE":1,"CNTR_CODE":"BG","NUTS_NAME":"ЮГОЗАПАДНА И ЮЖНА ЦЕНТРАЛНА БЪЛГАРИЯ","FID":"BG4"},"id":"BG4"},{"type":"Point","coordinates":[8.2129,46.9548],"properties":{"NUTS_ID":"CH0","LEVL_CODE":1,"CNTR_CODE":"CH","NUTS_NAME":"SCHWEIZ/SUISSE/SVIZZERA","FID":"CH0"},"id":"CH0"},{"type":"Point","coordinates":[33.1739,35.0284],"properties":{"NUTS_ID":"CY0","LEVL_CODE":1,"CNTR_CODE":"CY","NUTS_NAME":"ΚΥΠΡΟΣ","FID":"CY0"},"id":"CY0"},{"type":"Point","coordinates":[15.3276,49.7382],"properties":{"NUTS_ID":"CZ0","LEVL_CODE":1,"CNTR_CODE":"CZ","NUTS_NAME":"ČESKÁ REPUBLIKA","FID":"CZ0"},"id":"CZ0"},{"type":"Point","coordinates":[9.0509,48.5342],"properties":{"NUTS_ID":"DE1","LEVL_CODE":1,"CNTR_CODE":"DE","NUTS_NAME":"BADEN-WÜRTTEMBERG","FID":"DE1"},"id":"DE1"},{"type":"Point","coordinates":[11.4213,48.9474],"properties":{"NUTS_ID":"DE2","LEVL_CODE":1,"CNTR_CODE":"DE","NUTS_NAME":"BAYERN","FID":"DE2"},"id":"DE2"},{"type":"Point","coordinates":[13.4022,52.5005],"properties":{"NUTS_ID":"DE3","LEVL_CODE":1,"CNTR_CODE":"DE","NUTS_NAME":"BERLIN","FID":"DE3"},"id":"DE3"},{"type":"Point","coordinates":[12.1381,53.0836],"properties":{"NUTS_ID":"DE4","LEVL_CODE":1,"CNTR_CODE":"DE","NUTS_NAME":"BRANDENBURG","FID":"DE4"},"id":"DE4"},{"type":"Point","coordinates":[8.7877,53.1065],"properties":{"NUTS_ID":"DE5","LEVL_CODE":1,"CNTR_CODE":"DE","NUTS_NAME":"BREMEN","FID":"DE5"},"id":"DE5"},{"type":"Point","coordinates":[10.01,53.5392],"properties":{"NUTS_ID":"DE6","LEVL_CODE":1,"CNTR_CODE":"DE","NUTS_NAME":"HAMBURG","FID":"DE6"},"id":"DE6"},{"type":"Point","coordinates":[9.0325,50.6006],"properties":{"NUTS_ID":"DE7","LEVL_CODE":1,"CNTR_CODE":"DE","NUTS_NAME":"HESSEN","FID":"DE7"},"id":"DE7"},{"type":"Point","coordinates":[12.4675,53.7138],"properties":{"NUTS_ID":"DE8","LEVL_CODE":1,"CNTR_CODE":"DE","NUTS_NAME":"MECKLENBURG-VORPOMMERN","FID":"DE8"},"id":"DE8"},{"type":"Point","coordinates":[9.1837,52.7621],"properties":{"NUTS_ID":"DE9","LEVL_CODE":1,"CNTR_CODE":"DE","NUTS_NAME":"NIEDERSACHSEN","FID":"DE9"},"id":"DE9"},{"type":"Point","coordinates":[7.5507,51.4749],"properties":{"NUTS_ID":"DEA","LEVL_CODE":1,"CNTR_CODE":"DE","NUTS_NAME":"NORDRHEIN-WESTFALEN","FID":"DEA"},"id":"DEA"},{"type":"Point","coordinates":[7.9074,49.5093],"properties":{"NUTS_ID":"DEB","LEVL_CODE":1,"CNTR_CODE":"DE","NUTS_NAME":"RHEINLAND-PFALZ","FID":"DEB"},"id":"DEB"},{"type":"Point","coordinates":[6.957,49.3922],"properties":{"NUTS_ID":"DEC","LEVL_CODE":1,"CNTR_CODE":"DE","NUTS_NAME":"SAARLAND","FID":"DEC"},"id":"DEC"},{"type":"Point","coordinates":[13.3332,51.0583],"properties":{"NUTS_ID":"DED","LEVL_CODE":1,"CNTR_CODE":"DE","NUTS_NAME":"SACHSEN","FID":"DED"},"id":"DED"},{"type":"Point","coordinates":[11.6996,52.011],"properties":{"NUTS_ID":"DEE","LEVL_CODE":1,"CNTR_CODE":"DE","NUTS_NAME":"SACHSEN-ANHALT","FID":"DEE"},"id":"DEE"},{"type":"Point","coordinates":[9.8212,54.0804],"properties":{"NUTS_ID":"DEF","LEVL_CODE":1,"CNTR_CODE":"DE","NUTS_NAME":"SCHLESWIG-HOLSTEIN","FID":"DEF"},"id":"DEF"},{"type":"Point","coordinates":[11.0218,50.9044],"properties":{"NUTS_ID":"DEG","LEVL_CODE":1,"CNTR_CODE":"DE","NUTS_NAME":"THÜRINGEN","FID":"DEG"},"id":"DEG"},{"type":"Point","coordinates":[9.3193,56.0271],"properties":{"NUTS_ID":"DK0","LEVL_CODE":1,"CNTR_CODE":"DK","NUTS_NAME":"DANMARK","FID":"DK0"},"id":"DK0"},{"type":"Point","coordinates":[25.8548,58.6709],"properties":{"NUTS_ID":"EE0","LEVL_CODE":1,"CNTR_CODE":"EE","NUTS_NAME":"EESTI","FID":"EE0"},"id":"EE0"},{"type":"Point","coordinates":[23.8114,38.0548],"properties":{"NUTS_ID":"EL3","LEVL_CODE":1,"CNTR_CODE":"EL","NUTS_NAME":"ATTIKΗ","FID":"EL3"},"id":"EL3"},{"type":"Point","coordinates":[24.8224,35.2248],"properties":{"NUTS_ID":"EL4","LEVL_CODE":1,"CNTR_CODE":"EL","NUTS_NAME":"NΗΣΙΑ ΑΙΓΑΙΟΥ, KΡΗΤΗ","FID":"EL4"},"id":"EL4"},{"type":"Point","coordinates":[23.3044,40.7986],"properties":{"NUTS_ID":"EL5","LEVL_CODE":1,"CNTR_CODE":"EL","NUTS_NAME":"ΒΟΡΕΙΑ ΕΛΛΑΔΑ","FID":"EL5"},"id":"EL5"},{"type":"Point","coordinates":[22.198,39.0501],"properties":{"NUTS_ID":"EL6","LEVL_CODE":1,"CNTR_CODE":"EL","NUTS_NAME":"ΚΕΝΤΡΙΚΗ ΕΛΛΑΔΑ","FID":"EL6"},"id":"EL6"},{"type":"Point","coordinates":[-7.6953,42.8192],"properties":{"NUTS_ID":"ES1","LEVL_CODE":1,"CNTR_CODE":"ES","NUTS_NAME":"NOROESTE","FID":"ES1"},"id":"ES1"},{"type":"Point","coordinates":[-1.1301,41.8962],"properties":{"NUTS_ID":"ES2","LEVL_CODE":1,"CNTR_CODE":"ES","NUTS_NAME":"NORESTE","FID":"ES2"},"id":"ES2"},{"type":"Point","coordinates":[-3.7119,40.5008],"properties":{"NUTS_ID":"ES3","LEVL_CODE":1,"CNTR_CODE":"ES","NUTS_NAME":"COMUNIDAD DE MADRID","FID":"ES3"},"id":"ES3"},{"type":"Point","coordinates":[-5.8894,40.5556],"properties":{"NUTS_ID":"ES4","LEVL_CODE":1,"CNTR_CODE":"ES","NUTS_NAME":"CENTRO (ES)","FID":"ES4"},"id":"ES4"},{"type":"Point","coordinates":[2.0051,41.8473],"properties":{"NUTS_ID":"ES5","LEVL_CODE":1,"CNTR_CODE":"ES","NUTS_NAME":"ESTE","FID":"ES5"},"id":"ES5"},{"type":"Point","coordinates":[-4.261,37.5155],"properties":{"NUTS_ID":"ES6","LEVL_CODE":1,"CNTR_CODE":"ES","NUTS_NAME":"SUR","FID":"ES6"},"id":"ES6"},{"type":"Point","coordinates":[-16.5646,28.2457],"properties":{"NUTS_ID":"ES7","LEVL_CODE":1,"CNTR_CODE":"ES","NUTS_NAME":"CANARIAS","FID":"ES7"},"id":"ES7"},{"type":"Point","coordinates":[26.2795,64.4974],"properties":{"NUTS_ID":"FI1","LEVL_CODE":1,"CNTR_CODE":"FI","NUTS_NAME":"MANNER-SUOMI","FID":"FI1"},"id":"FI1"},{"type":"Point","coordinates":[20.0931,60.2653],"properties":{"NUTS_ID":"FI2","LEVL_CODE":1,"CNTR_CODE":"FI","NUTS_NAME":"ÅLAND","FID":"FI2"},"id":"FI2"},{"type":"Point","coordinates":[2.5234,48.7196],"properties":{"NUTS_ID":"FR1","LEVL_CODE":1,"CNTR_CODE":"FR","NUTS_NAME":"ILE-DE-FRANCE","FID":"FR1"},"id":"FR1"},{"type":"Point","coordinates":[1.6776,47.4811],"properties":{"NUTS_ID":"FRB","LEVL_CODE":1,"CNTR_CODE":"FR","NUTS_NAME":"CENTRE - VAL DE LOIRE","FID":"FRB"},"id":"FRB"},{"type":"Point","coordinates":[4.8083,47.2297],"properties":{"NUTS_ID":"FRC","LEVL_CODE":1,"CNTR_CODE":"FR","NUTS_NAME":"BOURGOGNE-FRANCHE-COMTÉ","FID":"FRC"},"id":"FRC"},{"type":"Point","coordinates":[0.0112,48.8652],"properties":{"NUTS_ID":"FRD","LEVL_CODE":1,"CNTR_CODE":"FR","NUTS_NAME":"NORMANDIE","FID":"FRD"},"id":"FRD"},{"type":"Point","coordinates":[2.7686,49.9703],"properties":{"NUTS_ID":"FRE","LEVL_CODE":1,"CNTR_CODE":"FR","NUTS_NAME":"NORD-PAS DE CALAIS-PICARDIE","FID":"FRE"},"id":"FRE"},{"type":"Point","coordinates":[5.6267,48.6914],"properties":{"NUTS_ID":"FRF","LEVL_CODE":1,"CNTR_CODE":"FR","NUTS_NAME":"ALSACE-CHAMPAGNE-ARDENNE-LORRAINE","FID":"FRF"},"id":"FRF"},{"type":"Point","coordinates":[-0.7959,47.4936],"properties":{"NUTS_ID":"FRG","LEVL_CODE":1,"CNTR_CODE":"FR","NUTS_NAME":"PAYS DE LA LOIRE","FID":"FRG"},"id":"FRG"},{"type":"Point","coordinates":[-2.7883,48.1657],"properties":{"NUTS_ID":"FRH","LEVL_CODE":1,"CNTR_CODE":"FR","NUTS_NAME":"BRETAGNE","FID":"FRH"},"id":"FRH"},{"type":"Point","coordinates":[0.3897,45.4822],"properties":{"NUTS_ID":"FRI","LEVL_CODE":1,"CNTR_CODE":"FR","NUTS_NAME":"AQUITAINE-LIMOUSIN-POITOU-CHARENTES","FID":"FRI"},"id":"FRI"},{"type":"Point","coordinates":[2.1442,43.707],"properties":{"NUTS_ID":"FRJ","LEVL_CODE":1,"CNTR_CODE":"FR","NUTS_NAME":"LANGUEDOC-ROUSSILLON-MIDI-PYRÉNÉES","FID":"FRJ"},"id":"FRJ"},{"type":"Point","coordinates":[4.5927,45.2815],"properties":{"NUTS_ID":"FRK","LEVL_CODE":1,"CNTR_CODE":"FR","NUTS_NAME":"AUVERGNE-RHÔNE-ALPES","FID":"FRK"},"id":"FRK"},{"type":"Point","coordinates":[6.0641,43.9629],"properties":{"NUTS_ID":"FRL","LEVL_CODE":1,"CNTR_CODE":"FR","NUTS_NAME":"PROVENCE-ALPES-CÔTE D’AZUR","FID":"FRL"},"id":"FRL"},{"type":"Point","coordinates":[9.0976,42.1267],"properties":{"NUTS_ID":"FRM","LEVL_CODE":1,"CNTR_CODE":"FR","NUTS_NAME":"CORSE","FID":"FRM"},"id":"FRM"},{"type":"Point","coordinates":[-53.2263,3.9221],"properties":{"NUTS_ID":"FRY","LEVL_CODE":1,"CNTR_CODE":"FR","NUTS_NAME":"RUP FR - RÉGIONS ULTRAPÉRIPHÉRIQUES FRANÇAISES","FID":"FRY"},"id":"FRY"},{"type":"Point","coordinates":[16.4894,43.756],"properties":{"NUTS_ID":"HR0","LEVL_CODE":1,"CNTR_CODE":"HR","NUTS_NAME":"HRVATSKA","FID":"HR0"},"id":"HR0"},{"type":"Point","coordinates":[19.3111,47.4258],"properties":{"NUTS_ID":"HU1","LEVL_CODE":1,"CNTR_CODE":"HU","NUTS_NAME":"KÖZÉP-MAGYARORSZÁG","FID":"HU1"},"id":"HU1"},{"type":"Point","coordinates":[17.7321,46.8766],"properties":{"NUTS_ID":"HU2","LEVL_CODE":1,"CNTR_CODE":"HU","NUTS_NAME":"DUNÁNTÚL","FID":"HU2"},"id":"HU2"},{"type":"Point","coordinates":[20.8493,47.3933],"properties":{"NUTS_ID":"HU3","LEVL_CODE":1,"CNTR_CODE":"HU","NUTS_NAME":"ALFÖLD ÉS ÉSZAK","FID":"HU3"},"id":"HU3"},{"type":"Point","coordinates":[-8.0902,53.1794],"properties":{"NUTS_ID":"IE0","LEVL_CODE":1,"CNTR_CODE":"IE","NUTS_NAME":"IRELAND","FID":"IE0"},"id":"IE0"},{"type":"Point","coordinates":[-18.8569,64.756],"properties":{"NUTS_ID":"IS0","LEVL_CODE":1,"CNTR_CODE":"IS","NUTS_NAME":"ÍSLAND","FID":"IS0"},"id":"IS0"},{"type":"Point","coordinates":[8.7282,45.2602],"properties":{"NUTS_ID":"ITC","LEVL_CODE":1,"CNTR_CODE":"IT","NUTS_NAME":"NORD-OVEST","FID":"ITC"},"id":"ITC"},{"type":"Point","coordinates":[15.5982,40.7741],"properties":{"NUTS_ID":"ITF","LEVL_CODE":1,"CNTR_CODE":"IT","NUTS_NAME":"SUD","FID":"ITF"},"id":"ITF"},{"type":"Point","coordinates":[14.1658,37.5704],"properties":{"NUTS_ID":"ITG","LEVL_CODE":1,"CNTR_CODE":"IT","NUTS_NAME":"ISOLE","FID":"ITG"},"id":"ITG"},{"type":"Point","coordinates":[11.5837,45.5007],"properties":{"NUTS_ID":"ITH","LEVL_CODE":1,"CNTR_CODE":"IT","NUTS_NAME":"NORD-EST","FID":"ITH"},"id":"ITH"},{"type":"Point","coordinates":[12.1426,42.9451],"properties":{"NUTS_ID":"ITI","LEVL_CODE":1,"CNTR_CODE":"IT","NUTS_NAME":"CENTRO (IT)","FID":"ITI"},"id":"ITI"},{"type":"Point","coordinates":[9.5534,47.1383],"properties":{"NUTS_ID":"LI0","LEVL_CODE":1,"CNTR_CODE":"LI","NUTS_NAME":"LIECHTENSTEIN","FID":"LI0"},"id":"LI0"},{"type":"Point","coordinates":[23.9197,55.3351],"properties":{"NUTS_ID":"LT0","LEVL_CODE":1,"CNTR_CODE":"LT","NUTS_NAME":"LIETUVA","FID":"LT0"},"id":"LT0"},{"type":"Point","coordinates":[6.0943,49.771],"properties":{"NUTS_ID":"LU0","LEVL_CODE":1,"CNTR_CODE":"LU","NUTS_NAME":"LUXEMBOURG","FID":"LU0"},"id":"LU0"},{"type":"Point","coordinates":[26.382,56.6829],"properties":{"NUTS_ID":"LV0","LEVL_CODE":1,"CNTR_CODE":"LV","NUTS_NAME":"LATVIJA","FID":"LV0"},"id":"LV0"},{"type":"Point","coordinates":[19.269,42.7721],"properties":{"NUTS_ID":"ME0","LEVL_CODE":1,"CNTR_CODE":"ME","NUTS_NAME":"ЦРНА ГОРА","FID":"ME0"},"id":"ME0"},{"type":"Point","coordinates":[21.6966,41.5981],"properties":{"NUTS_ID":"MK0","LEVL_CODE":1,"CNTR_CODE":"MK","NUTS_NAME":"Severna Makedonija","FID":"MK0"},"id":"MK0"},{"type":"Point","coordinates":[14.4312,35.886],"properties":{"NUTS_ID":"MT0","LEVL_CODE":1,"CNTR_CODE":"MT","NUTS_NAME":"MALTA","FID":"MT0"},"id":"MT0"},{"type":"Point","coordinates":[6.3039,53.0445],"properties":{"NUTS_ID":"NL1","LEVL_CODE":1,"CNTR_CODE":"NL","NUTS_NAME":"NOORD-NEDERLAND","FID":"NL1"},"id":"NL1"},{"type":"Point","coordinates":[5.9995,52.2953],"properties":{"NUTS_ID":"NL2","LEVL_CODE":1,"CNTR_CODE":"NL","NUTS_NAME":"OOST-NEDERLAND","FID":"NL2"},"id":"NL2"},{"type":"Point","coordinates":[4.7278,52.1805],"properties":{"NUTS_ID":"NL3","LEVL_CODE":1,"CNTR_CODE":"NL","NUTS_NAME":"WEST-NEDERLAND","FID":"NL3"},"id":"NL3"},{"type":"Point","coordinates":[5.4154,51.4562],"properties":{"NUTS_ID":"NL4","LEVL_CODE":1,"CNTR_CODE":"NL","NUTS_NAME":"ZUID-NEDERLAND","FID":"NL4"},"id":"NL4"},{"type":"Point","coordinates":[11.4948,61.7103],"properties":{"NUTS_ID":"NO0","LEVL_CODE":1,"CNTR_CODE":"NO","NUTS_NAME":"NORGE","FID":"NO0"},"id":"NO0"},{"type":"Point","coordinates":[19.6955,50.0734],"properties":{"NUTS_ID":"PL2","LEVL_CODE":1,"CNTR_CODE":"PL","NUTS_NAME":"MAKROREGION POŁUDNIOWY","FID":"PL2"},"id":"PL2"},{"type":"Point","coordinates":[16.2697,52.7258],"properties":{"NUTS_ID":"PL4","LEVL_CODE":1,"CNTR_CODE":"PL","NUTS_NAME":"MAKROREGION PÓŁNOCNO-ZACHODNI","FID":"PL4"},"id":"PL4"},{"type":"Point","coordinates":[16.8902,50.959],"properties":{"NUTS_ID":"PL5","LEVL_CODE":1,"CNTR_CODE":"PL","NUTS_NAME":"MAKROREGION POŁUDNIOWO-ZACHODNI","FID":"PL5"},"id":"PL5"},{"type":"Point","coordinates":[18.2223,53.6879],"properties":{"NUTS_ID":"PL6","LEVL_CODE":1,"CNTR_CODE":"PL","NUTS_NAME":"MAKROREGION PÓŁNOCNY","FID":"PL6"},"id":"PL6"},{"type":"Point","coordinates":[19.9395,51.2825],"properties":{"NUTS_ID":"PL7","LEVL_CODE":1,"CNTR_CODE":"PL","NUTS_NAME":"MAKROREGION CENTRALNY","FID":"PL7"},"id":"PL7"},{"type":"Point","coordinates":[22.6288,50.58],"properties":{"NUTS_ID":"PL8","LEVL_CODE":1,"CNTR_CODE":"PL","NUTS_NAME":"MAKROREGION WSCHODNI","FID":"PL8"},"id":"PL8"},{"type":"Point","coordinates":[21.0921,52.3675],"properties":{"NUTS_ID":"PL9","LEVL_CODE":1,"CNTR_CODE":"PL","NUTS_NAME":"MAKROREGION WOJEWÓDZTWO MAZOWIECKIE","FID":"PL9"},"id":"PL9"},{"type":"Point","coordinates":[-7.9703,39.6868],"properties":{"NUTS_ID":"PT1","LEVL_CODE":1,"CNTR_CODE":"PT","NUTS_NAME":"CONTINENTE","FID":"PT1"},"id":"PT1"},{"type":"Point","coordinates":[-25.3659,37.7846],"properties":{"NUTS_ID":"PT2","LEVL_CODE":1,"CNTR_CODE":"PT","NUTS_NAME":"REGIÃO AUTÓNOMA DOS AÇORES","FID":"PT2"},"id":"PT2"},{"type":"Point","coordinates":[-16.9503,32.7326],"properties":{"NUTS_ID":"PT3","LEVL_CODE":1,"CNTR_CODE":"PT","NUTS_NAME":"REGIÃO AUTÓNOMA DA MADEIRA","FID":"PT3"},"id":"PT3"},{"type":"Point","coordinates":[24.0679,46.7109],"properties":{"NUTS_ID":"RO1","LEVL_CODE":1,"CNTR_CODE":"RO","NUTS_NAME":"MACROREGIUNEA UNU","FID":"RO1"},"id":"RO1"},{"type":"Point","coordinates":[27.2368,46.1422],"properties":{"NUTS_ID":"RO2","LEVL_CODE":1,"CNTR_CODE":"RO","NUTS_NAME":"MACROREGIUNEA DOI","FID":"RO2"},"id":"RO2"},{"type":"Point","coordinates":[25.8887,44.5999],"properties":{"NUTS_ID":"RO3","LEVL_CODE":1,"CNTR_CODE":"RO","NUTS_NAME":"MACROREGIUNEA TREI","FID":"RO3"},"id":"RO3"},{"type":"Point","coordinates":[22.793,45.1822],"properties":{"NUTS_ID":"RO4","LEVL_CODE":1,"CNTR_CODE":"RO","NUTS_NAME":"MACROREGIUNEA PATRU","FID":"RO4"},"id":"RO4"},{"type":"Point","coordinates":[20.1296,45.3065],"properties":{"NUTS_ID":"RS1","LEVL_CODE":1,"CNTR_CODE":"RS","NUTS_NAME":"Србија - север ","FID":"RS1"},"id":"RS1"},{"type":"Point","coordinates":[21.1282,43.7155],"properties":{"NUTS_ID":"RS2","LEVL_CODE":1,"CNTR_CODE":"RS","NUTS_NAME":"Србија - југ ","FID":"RS2"},"id":"RS2"},{"type":"Point","coordinates":[16.3811,59.264],"properties":{"NUTS_ID":"SE1","LEVL_CODE":1,"CNTR_CODE":"SE","NUTS_NAME":"ÖSTRA SVERIGE","FID":"SE1"},"id":"SE1"},{"type":"Point","coordinates":[13.8937,57.4031],"properties":{"NUTS_ID":"SE2","LEVL_CODE":1,"CNTR_CODE":"SE","NUTS_NAME":"SÖDRA SVERIGE","FID":"SE2"},"id":"SE2"},{"type":"Point","coordinates":[17.9907,65.4426],"properties":{"NUTS_ID":"SE3","LEVL_CODE":1,"CNTR_CODE":"SE","NUTS_NAME":"NORRA SVERIGE","FID":"SE3"},"id":"SE3"},{"type":"Point","coordinates":[14.8169,46.1277],"properties":{"NUTS_ID":"SI0","LEVL_CODE":1,"CNTR_CODE":"SI","NUTS_NAME":"SLOVENIJA","FID":"SI0"},"id":"SI0"},{"type":"Point","coordinates":[19.4741,48.7042],"properties":{"NUTS_ID":"SK0","LEVL_CODE":1,"CNTR_CODE":"SK","NUTS_NAME":"SLOVENSKO","FID":"SK0"},"id":"SK0"},{"type":"Point","coordinates":[28.4372,41.2186],"properties":{"NUTS_ID":"TR1","LEVL_CODE":1,"CNTR_CODE":"TR","NUTS_NAME":"ISTANBUL","FID":"TR1"},"id":"TR1"},{"type":"Point","coordinates":[27.5552,39.8295],"properties":{"NUTS_ID":"TR2","LEVL_CODE":1,"CNTR_CODE":"TR","NUTS_NAME":"BATI MARMARA","FID":"TR2"},"id":"TR2"},{"type":"Point","coordinates":[28.9162,38.3116],"properties":{"NUTS_ID":"TR3","LEVL_CODE":1,"CNTR_CODE":"TR","NUTS_NAME":"EGE","FID":"TR3"},"id":"TR3"},{"type":"Point","coordinates":[30.4583,40.2257],"properties":{"NUTS_ID":"TR4","LEVL_CODE":1,"CNTR_CODE":"TR","NUTS_NAME":"DOGU MARMARA","FID":"TR4"},"id":"TR4"},{"type":"Point","coordinates":[32.6695,38.5109],"properties":{"NUTS_ID":"TR5","LEVL_CODE":1,"CNTR_CODE":"TR","NUTS_NAME":"BATI ANADOLU","FID":"TR5"},"id":"TR5"},{"type":"Point","coordinates":[33.4793,36.5454],"properties":{"NUTS_ID":"TR6","LEVL_CODE":1,"CNTR_CODE":"TR","NUTS_NAME":"AKDENIZ","FID":"TR6"},"id":"TR6"},{"type":"Point","coordinates":[35.6542,39.1198],"properties":{"NUTS_ID":"TR7","LEVL_CODE":1,"CNTR_CODE":"TR","NUTS_NAME":"ORTA ANADOLU","FID":"TR7"},"id":"TR7"},{"type":"Point","coordinates":[34.5682,40.997],"properties":{"NUTS_ID":"TR8","LEVL_CODE":1,"CNTR_CODE":"TR","NUTS_NAME":"BATI KARADENIZ","FID":"TR8"},"id":"TR8"},{"type":"Point","coordinates":[39.6499,40.7675],"properties":{"NUTS_ID":"TR9","LEVL_CODE":1,"CNTR_CODE":"TR","NUTS_NAME":"DOGU KARADENIZ","FID":"TR9"},"id":"TR9"},{"type":"Point","coordinates":[41.8165,40.0453],"properties":{"NUTS_ID":"TRA","LEVL_CODE":1,"CNTR_CODE":"TR","NUTS_NAME":"KUZEYDOGU ANADOLU","FID":"TRA"},"id":"TRA"},{"type":"Point","coordinates":[42.9302,38.4148],"properties":{"NUTS_ID":"TRB","LEVL_CODE":1,"CNTR_CODE":"TR","NUTS_NAME":"ORTADOGU ANADOLU","FID":"TRB"},"id":"TRB"},{"type":"Point","coordinates":[39.9543,37.5691],"properties":{"NUTS_ID":"TRC","LEVL_CODE":1,"CNTR_CODE":"TR","NUTS_NAME":"GÜNEYDOGU ANADOLU","FID":"TRC"},"id":"TRC"},{"type":"Point","coordinates":[-1.8954,55.0288],"properties":{"NUTS_ID":"UKC","LEVL_CODE":1,"CNTR_CODE":"UK","NUTS_NAME":"NORTH EAST (ENGLAND)","FID":"UKC"},"id":"UKC"},{"type":"Point","coordinates":[-3.1445,54.5081],"properties":{"NUTS_ID":"UKD","LEVL_CODE":1,"CNTR_CODE":"UK","NUTS_NAME":"NORTH WEST (ENGLAND)","FID":"UKD"},"id":"UKD"},{"type":"Point","coordinates":[-1.2945,53.9865],"properties":{"NUTS_ID":"UKE","LEVL_CODE":1,"CNTR_CODE":"UK","NUTS_NAME":"YORKSHIRE AND THE HUMBER","FID":"UKE"},"id":"UKE"},{"type":"Point","coordinates":[-0.8249,52.9216],"properties":{"NUTS_ID":"UKF","LEVL_CODE":1,"CNTR_CODE":"UK","NUTS_NAME":"EAST MIDLANDS (ENGLAND)","FID":"UKF"},"id":"UKF"},{"type":"Point","coordinates":[-2.2577,52.4833],"properties":{"NUTS_ID":"UKG","LEVL_CODE":1,"CNTR_CODE":"UK","NUTS_NAME":"WEST MIDLANDS (ENGLAND)","FID":"UKG"},"id":"UKG"},{"type":"Point","coordinates":[0.5219,52.2646],"properties":{"NUTS_ID":"UKH","LEVL_CODE":1,"CNTR_CODE":"UK","NUTS_NAME":"EAST OF ENGLAND","FID":"UKH"},"id":"UKH"},{"type":"Point","coordinates":[-0.0983,51.4149],"properties":{"NUTS_ID":"UKI","LEVL_CODE":1,"CNTR_CODE":"UK","NUTS_NAME":"LONDON","FID":"UKI"},"id":"UKI"},{"type":"Point","coordinates":[-1.125,51.4257],"properties":{"NUTS_ID":"UKJ","LEVL_CODE":1,"CNTR_CODE":"UK","NUTS_NAME":"SOUTH EAST (ENGLAND)","FID":"UKJ"},"id":"UKJ"},{"type":"Point","coordinates":[-2.4879,51.2108],"properties":{"NUTS_ID":"UKK","LEVL_CODE":1,"CNTR_CODE":"UK","NUTS_NAME":"SOUTH WEST (ENGLAND)","FID":"UKK"},"id":"UKK"},{"type":"Point","coordinates":[-3.6942,52.3015],"properties":{"NUTS_ID":"UKL","LEVL_CODE":1,"CNTR_CODE":"UK","NUTS_NAME":"WALES","FID":"UKL"},"id":"UKL"},{"type":"Point","coordinates":[-4.0265,56.5484],"properties":{"NUTS_ID":"UKM","LEVL_CODE":1,"CNTR_CODE":"UK","NUTS_NAME":"SCOTLAND","FID":"UKM"},"id":"UKM"},{"type":"Point","coordinates":[-6.6253,54.6306],"properties":{"NUTS_ID":"UKN","LEVL_CODE":1,"CNTR_CODE":"UK","NUTS_NAME":"NORTHERN IRELAND","FID":"UKN"},"id":"UKN"}]}}}